{"plan":{"date":1768201800000,"from":{"name":"Origine","lat":45.195372,"lon":0.7808015},"to":{"name":"Destination","lat":45.1858333,"lon":0.6619444},"itineraries":[{"startTime":1768201800000,"endTime":1768236779000,"duration":34979,"walkDistance":250,"transfers":2,"legs":[{"mode":"WALK","startTime":1768201800000,"endTime":1768201867000,"duration":67,"distance":84.35329644148479,"from":{"name":"","lat":45.195372,"lon":0.7808015},"to":{"name":"Trélissac Bourg","lat":45.194981,"lon":0.779879,"stopId":"MOBIITI:Quay:111646"},"legGeometry":null},{"mode":"WAIT","startTime":1768201867000,"endTime":1768202388000,"duration":521,"distance":0,"from":{"name":""},"to":{"name":""},"legGeometry":null},{"mode":"BUS","startTime":1768202388000,"endTime":1768203480000,"duration":1092,"distance":0,"from":{"name":"Trélissac Bourg","lat":45.194981,"lon":0.779879,"stopId":"MOBIITI:Quay:111646"},"to":{"name":"Hoche","lat":45.181141,"lon":0.72226,"stopId":"MOBIITI:Quay:111653"},"legGeometry":null,"transitLeg":true,"routeId":"CA_GRAND_PERIGUEUX:Line:101","routeShortName":"D","routeColor":"#41ae18","routeTextColor":"FFFFFF","tripId":"CA_GRAND_PERIGUEUX:VehicleJourney:288698","headsign":"Tourny","agencyName":"Péribus"},{"mode":"WAIT","startTime":1768203480000,"endTime":1768206720000,"duration":3240,"distance":0,"from":{"name":""},"to":{"name":""},"legGeometry":null},{"mode":"BUS","startTime":1768206720000,"endTime":1768207440000,"duration":720,"distance":0,"from":{"name":"Hoche","lat":45.181141,"lon":0.72226,"stopId":"MOBIITI:Quay:111653"},"to":{"name":"Mériller","lat":45.192947,"lon":0.684543,"stopId":"MOBIITI:Quay:111822"},"legGeometry":null,"transitLeg":true,"routeId":"CA_GRAND_PERIGUEUX:Line:112","routeShortName":"e2","routeColor":"#ff7601","routeTextColor":"FFFFFF","tripId":"CA_GRAND_PERIGUEUX:VehicleJourney:292621","headsign":"Fromarsac","agencyName":"Péribus"},{"mode":"WAIT","startTime":1768207440000,"endTime":1768236338000,"duration":28898,"distance":0,"from":{"name":""},"to":{"name":""},"legGeometry":null},{"mode":"BUS","startTime":1768236338000,"endTime":1768236647000,"duration":309,"distance":0,"from":{"name":"Mériller","lat":45.192947,"lon":0.684543,"stopId":"MOBIITI:Quay:111822"},"to":{"name":"Marsac commerces","lat":45.18483,"lon":0.660387,"stopId":"MOBIITI:Quay:111839"},"legGeometry":null,"transitLeg":true,"routeId":"CA_GRAND_PERIGUEUX:Line:120","routeShortName":"R5","routeColor":"#107f73","routeTextColor":"FFFFFF","tripId":"CA_GRAND_PERIGUEUX:VehicleJourney:292273","headsign":"Clément Laval","agencyName":"Péribus"},{"mode":"WALK","startTime":1768236647000,"endTime":1768236779000,"duration":132,"distance":165.3597061747427,"from":{"name":"Marsac commerces","lat":45.18483,"lon":0.660387,"stopId":"MOBIITI:Quay:111839"},"to":{"name":"","lat":45.1858333,"lon":0.6619444},"legGeometry":null}]},{"startTime":1768201800000,"endTime":1768236779000,"duration":34979,"walkDistance":346,"transfers":2,"legs":[{"mode":"WALK","startTime":1768201800000,"endTime":1768201945000,"duration":145,"distance":181.08754282623002,"from":{"name":"","lat":45.195372,"lon":0.7808015},"to":{"name":"Trélissac Les Garennes","lat":45.195683,"lon":0.78307,"stopId":"MOBIITI:Quay:111644"},"legGeometry":null},{"mode":"WAIT","startTime":1768201945000,"endTime":1768203540000,"duration":1595,"distance":0,"from":{"name":""},"to":{"name":""},"legGeometry":null},{"mode":"BUS","startTime":1768203540000,"endTime":1768204140000,"duration":600,"distance":0,"from":{"name":"Trélissac Les Garennes","lat":45.195683,"lon":0.78307,"stopId":"MOBIITI:Quay:111644"},"to":{"name":"Trélissac Barberousse","lat":45.197948,"lon":0.740035,"stopId":"MOBIITI:Quay:111801"},"legGeometry":null,"transitLeg":true,"routeId":"CA_GRAND_PERIGUEUX:Line:114","routeShortName":"e4","routeColor":"#ff7601","routeTextColor":"FFFFFF","tripId":"CA_GRAND_PERIGUEUX:VehicleJourney:292473","headsign":"Tourny","agencyName":"Péribus"},{"mode":"WAIT","startTime":1768204140000,"endTime":1768204920000,"duration":780,"distance":0,"from":{"name":""},"to":{"name":""},"legGeometry":null},{"mode":"BUS","startTime":1768204920000,"endTime":1768206252000,"duration":1332,"distance":0,"from":{"name":"Trélissac Barberousse","lat":45.197948,"lon":0.740035,"stopId":"MOBIITI:Quay:111801"},"to":{"name":"Collège Jean Moulin","lat":45.192383,"lon":0.687535,"stopId":"MOBIITI:Quay:111843"},"legGeometry":null,"transitLeg":true,"routeId":"CA_GRAND_PERIGUEUX:Line:97","routeShortName":"C","routeColor":"#dd1b75","routeTextColor":"FFFFFF","tripId":"CA_GRAND_PERIGUEUX:VehicleJourney:73316","headsign":"ZAE Marsac","agencyName":"Péribus"},{"mode":"WAIT","startTime":1768206252000,"endTime":1768236300000,"duration":30048,"distance":0,"from":{"name":""},"to":{"name":""},"legGeometry":null},{"mode":"BUS","startTime":1768236300000,"endTime":1768236647000,"duration":347,"distance":0,"from":{"name":"Collège Jean Moulin","lat":45.192383,"lon":0.687535,"stopId":"MOBIITI:Quay:111843"},"to":{"name":"Marsac commerces","lat":45.18483,"lon":0.660387,"stopId":"MOBIITI:Quay:111839"},"legGeometry":null,"transitLeg":true,"routeId":"CA_GRAND_PERIGUEUX:Line:120","routeShortName":"R5","routeColor":"#107f73","routeTextColor":"FFFFFF","tripId":"CA_GRAND_PERIGUEUX:VehicleJourney:292273","headsign":"Clément Laval","agencyName":"Péribus"},{"mode":"WALK","startTime":1768236647000,"endTime":1768236779000,"duration":132,"distance":165.3597061747427,"from":{"name":"Marsac commerces","lat":45.18483,"lon":0.660387,"stopId":"MOBIITI:Quay:111839"},"to":{"name":"","lat":45.1858333,"lon":0.6619444},"legGeometry":null}]},{"startTime":1768201800000,"endTime":1768236779000,"duration":34979,"walkDistance":423,"transfers":3,"legs":[{"mode":"WALK","startTime":1768201800000,"endTime":1768202006000,"duration":206,"distance":257.31454688005505,"from":{"name":"","lat":45.195372,"lon":0.7808015},"to":{"name":"Rte du Pont","lat":45.193108,"lon":0.781481,"stopId":"MOBIITI:Quay:111756"},"legGeometry":null},{"mode":"WAIT","startTime":1768202006000,"endTime":1768204200000,"duration":2194,"distance":0,"from":{"name":""},"to":{"name":""},"legGeometry":null},{"mode":"BUS","startTime":1768204200000,"endTime":1768204380000,"duration":180,"distance":0,"from":{"name":"Rte du Pont","lat":45.193108,"lon":0.781481,"stopId":"MOBIITI:Quay:111756"},"to":{"name":"Les Tournesols","lat":45.186897,"lon":0.788634,"stopId":"MOBIITI:Quay:111655"},"legGeometry":null,"transitLeg":true,"routeId":"CA_GRAND_PERIGUEUX:Line:151","routeShortName":"K5","routeColor":"#c9c07b","routeTextColor":"FFFFFF","tripId":"CA_GRAND_PERIGUEUX:VehicleJourney:292058","headsign":"Halte ferroviaire Boulazac","agencyName":"Péribus"},{"mode":"WAIT","startTime":1768204380000,"endTime":1768204860000,"duration":480,"distance":0,"from":{"name":""},"to":{"name":""},"legGeometry":null},{"mode":"BUS","startTime":1768204860000,"endTime":1768205880000,"duration":1020,"distance":0,"from":{"name":"Les Tournesols","lat":45.186897,"lon":0.788634,"stopId":"MOBIITI:Quay:111655"},"to":{"name":"Talleyrand Périgord","lat":45.183933,"lon":0.732993,"stopId":"MOBIITI:Quay:111675"},"legGeometry":null,"transitLeg":true,"routeId":"CA_GRAND_PERIGUEUX:Line:102","routeShortName":"B","routeColor":"#1e91ff","routeTextColor":"FFFFFF","tripId":"CA_GRAND_PERIGUEUX:VehicleJourney:290759","headsign":"Gare SNCF","agencyName":"Péribus"},{"mode":"WAIT","startTime":1768205880000,"endTime":1768206480000,"duration":600,"distance":0,"from":{"name":""},"to":{"name":""},"legGeometry":null},{"mode":"BUS","startTime":1768206480000,"endTime":1768207440000,"duration":960,"distance":0,"from":{"name":"Talleyrand Périgord","lat":45.183933,"lon":0.732993,"stopId":"MOBIITI:Quay:111675"},"to":{"name":"Mériller","lat":45.192947,"lon":0.684543,"stopId":"MOBIITI:Quay:111822"},"legGeometry":null,"transitLeg":true,"routeId":"CA_GRAND_PERIGUEUX:Line:112","routeShortName":"e2","routeColor":"#ff7601","routeTextColor":"FFFFFF","tripId":"CA_GRAND_PERIGUEUX:VehicleJourney:292621","headsign":"Fromarsac","agencyName":"Péribus"},{"mode":"WAIT","startTime":1768207440000,"endTime":1768236338000,"duration":28898,"distance":0,"from":{"name":""},"to":{"name":""},"legGeometry":null},{"mode":"BUS","startTime":1768236338000,"endTime":1768236647000,"duration":309,"distance":0,"from":{"name":"Mériller","lat":45.192947,"lon":0.684543,"stopId":"MOBIITI:Quay:111822"},"to":{"name":"Marsac commerces","lat":45.18483,"lon":0.660387,"stopId":"MOBIITI:Quay:111839"},"legGeometry":null,"transitLeg":true,"routeId":"CA_GRAND_PERIGUEUX:Line:120","routeShortName":"R5","routeColor":"#107f73","routeTextColor":"FFFFFF","tripId":"CA_GRAND_PERIGUEUX:VehicleJourney:292273","headsign":"Clément Laval","agencyName":"Péribus"},{"mode":"WALK","startTime":1768236647000,"endTime":1768236779000,"duration":132,"distance":165.3597061747427,"from":{"name":"Marsac commerces","lat":45.18483,"lon":0.660387,"stopId":"MOBIITI:Quay:111839"},"to":{"name":"","lat":45.1858333,"lon":0.6619444},"legGeometry":null}]}]}}
